City_ID,City,Country,Date,Lat,Lng,Max Temp,Humidity,Cloudiness,Wind Speed
0,Atuona,PF,2021-08-12 02:30:20,-9.8,-139.0333,77.41,72,18,16.31
1,Hermanus,ZA,2021-08-12 02:27:35,-34.4187,19.2345,48.9,83,100,10.71
2,Karasjok,NO,2021-08-12 02:31:54,69.4719,25.5112,53.71,94,96,4.23
3,Bilma,NE,2021-08-12 02:31:55,18.6853,12.9164,88.54,38,76,10.22
4,Mataura,NZ,2021-08-12 02:28:19,-46.1927,168.8643,59.49,78,100,6.6
5,Kodinsk,RU,2021-08-12 02:28:37,58.6881,99.1844,73.81,39,74,3.6
6,Kholodnyy,RU,2021-08-12 02:31:57,62.7167,147.95,79.9,24,11,5.01
7,Lagoa,PT,2021-08-12 02:28:36,39.05,-27.9833,72.09,83,46,14.52
8,Vaini,TO,2021-08-12 02:28:50,-21.2,-175.2,66.36,100,90,3.44
9,Derac,HT,2021-08-12 02:31:57,19.65,-71.8167,74.03,81,79,4.76
10,Necochea,AR,2021-08-12 02:30:08,-38.5473,-58.7368,43.03,79,5,0.09
11,Barrow,US,2021-08-12 02:30:25,71.2906,-156.7887,37.42,87,90,17.27
12,Salinopolis,BR,2021-08-12 02:31:58,-0.6136,-47.3561,78.67,88,96,10.16
13,Grindavik,IS,2021-08-12 02:28:06,63.8424,-22.4338,53.55,93,90,4.61
14,Punta Arenas,CL,2021-08-12 02:24:55,-53.15,-70.9167,44.71,87,75,4.61
15,Thompson,CA,2021-08-12 02:29:43,55.7435,-97.8558,46.56,93,90,18.41
16,New Norfolk,AU,2021-08-12 02:30:30,-42.7826,147.0587,55.92,59,44,7.0
17,Albany,US,2021-08-12 02:28:12,42.6001,-73.9662,81.25,86,100,4.18
18,Szubin,PL,2021-08-12 02:31:59,53.0097,17.74,49.91,93,0,2.3
19,Kapaa,US,2021-08-12 02:27:44,22.0752,-159.319,84.52,69,20,3.0
20,Severo-Kurilsk,RU,2021-08-12 02:28:30,50.6789,156.125,57.0,69,100,9.91
21,Camacupa,AO,2021-08-12 02:32:00,-12.0167,17.4833,54.73,25,0,3.02
22,Upernavik,GL,2021-08-12 02:28:34,72.7868,-56.1549,41.09,92,100,20.6
23,Lebu,CL,2021-08-12 02:30:21,-37.6167,-73.65,47.35,79,0,5.44
24,Carnarvon,AU,2021-08-12 02:29:16,-24.8667,113.6333,64.47,32,0,14.97
25,Quatre Cocos,MU,2021-08-12 02:32:00,-20.2078,57.7625,71.71,85,32,10.89
26,Aguas Vermelhas,BR,2021-08-12 02:32:01,-15.7472,-41.46,59.92,70,38,3.22
27,Paita,PE,2021-08-12 02:28:48,-5.0892,-81.1144,64.08,83,20,13.27
28,Qinzhou,CN,2021-08-12 02:31:00,21.95,108.6167,90.0,66,85,12.82
29,Faya,SA,2021-08-12 02:32:01,18.3851,42.4509,66.31,60,81,1.72
30,Qaanaaq,GL,2021-08-12 02:27:34,77.484,-69.3632,40.46,93,100,0.4
31,Cucuta,CO,2021-08-12 02:31:44,7.8833,-72.5053,82.35,57,40,9.22
32,Rikitea,PF,2021-08-12 02:27:30,-23.1203,-134.9692,72.93,69,3,8.99
33,Amapa,BR,2021-08-12 02:32:02,1.0,-52.0,70.74,99,59,1.9
34,Thunder Bay,CA,2021-08-12 02:30:45,48.4001,-89.3168,73.99,51,90,5.75
35,San Francisco,US,2021-08-12 02:30:56,37.7749,-122.4194,83.95,80,20,4.0
36,Avarua,CK,2021-08-12 02:28:38,-21.2078,-159.775,73.45,88,90,8.05
37,Movila Banului,RO,2021-08-12 02:32:03,44.9833,26.6833,66.42,53,0,4.29
38,Zhigansk,RU,2021-08-12 02:32:03,66.7697,123.3711,67.71,44,65,5.3
39,Sitka,US,2021-08-12 02:29:01,57.0531,-135.33,60.69,82,90,5.75
40,Batemans Bay,AU,2021-08-12 02:32:03,-35.7167,150.1833,64.9,27,0,5.68
41,Hobart,AU,2021-08-12 02:28:44,-42.8794,147.3294,55.26,56,40,4.0
42,Manica,FR,2021-08-12 02:32:04,49.0,-1.1667,54.81,84,94,1.12
43,Tasiilaq,GL,2021-08-12 02:30:38,65.6145,-37.6368,48.36,85,20,7.76
44,Arraial Do Cabo,BR,2021-08-12 02:30:33,-22.9661,-42.0278,69.21,88,27,15.9
45,Bambous Virieux,MU,2021-08-12 02:30:40,-20.3428,57.7575,71.85,83,75,9.22
46,Jamestown,US,2021-08-12 02:28:44,42.097,-79.2353,72.99,84,20,5.99
47,Akdepe,TM,2021-08-12 02:32:05,42.0551,59.3788,77.09,32,0,5.55
48,Saskylakh,RU,2021-08-12 02:30:39,71.9167,114.0833,55.58,54,54,16.37
49,Eyl,SO,2021-08-12 02:28:52,7.9803,49.8164,75.13,82,85,16.4
50,Yellowknife,CA,2021-08-12 02:27:29,62.456,-114.3525,59.52,47,75,9.22
51,Vila Franca Do Campo,PT,2021-08-12 02:28:35,37.7167,-25.4333,72.01,89,10,6.38
52,Saint-Philippe,RE,2021-08-12 02:30:40,-21.3585,55.7679,69.39,83,39,12.48
53,Khani,GE,2021-08-12 02:32:06,41.9563,42.9566,60.37,75,27,2.91
54,Panaba,MX,2021-08-12 02:22:12,21.2833,-88.2667,79.03,83,66,9.62
55,Kodiak,US,2021-08-12 02:32:06,57.79,-152.4072,58.51,77,75,9.22
56,Umba,RU,2021-08-12 02:32:06,66.6871,34.3429,57.47,81,96,3.67
57,Faanui,PF,2021-08-12 02:32:07,-16.4833,-151.75,78.82,72,8,13.71
58,Yeppoon,AU,2021-08-12 02:29:47,-23.1333,150.7333,73.18,67,0,13.33
59,Victoria,HK,2021-08-12 02:29:31,22.2855,114.1577,90.97,78,98,6.02
60,Richards Bay,ZA,2021-08-12 02:32:07,-28.783,32.0377,60.01,65,0,7.47
61,Butaritari,KI,2021-08-12 02:30:22,3.0707,172.7902,83.37,65,0,8.5
62,Alihe,CN,2021-08-12 02:32:08,50.5667,123.7167,69.26,55,44,5.7
63,Cabo San Lucas,MX,2021-08-12 02:29:56,22.8909,-109.9124,84.51,81,40,3.44
64,Saint George,US,2021-08-12 02:27:01,37.1041,-113.5841,97.27,26,1,17.27
65,Nenjiang,CN,2021-08-12 02:32:08,49.1833,125.2167,69.4,70,5,9.44
66,Luderitz,NA,2021-08-12 02:32:09,-26.6481,15.1594,52.75,84,24,12.12
67,Bom Jesus,BR,2021-08-12 02:32:09,-9.0744,-44.3586,71.65,46,5,1.39
68,Ushuaia,AR,2021-08-12 02:30:11,-54.8,-68.3,42.46,81,40,27.63
69,Baykit,RU,2021-08-12 02:32:09,61.67,96.37,69.06,56,100,1.48
70,Port Alfred,ZA,2021-08-12 02:30:14,-33.5906,26.891,55.54,81,49,15.5
71,Sambava,MG,2021-08-12 02:28:20,-14.2667,50.1667,69.06,77,56,9.17
72,Sawang Daen Din,TH,2021-08-12 02:32:10,17.4753,103.4575,84.78,75,100,8.52
73,Brezno,SK,2021-08-12 02:32:10,48.8043,19.6363,54.21,92,0,3.6
74,Chokurdakh,RU,2021-08-12 02:30:34,70.6333,147.9167,61.84,78,100,5.5
75,Flin Flon,CA,2021-08-12 02:31:18,54.7682,-101.865,47.21,69,99,19.15
76,Tuatapere,NZ,2021-08-12 02:32:11,-46.1333,167.6833,58.82,67,100,7.85
77,Hilo,US,2021-08-12 02:29:17,19.7297,-155.09,82.13,77,90,8.05
78,Mar Del Plata,AR,2021-08-12 02:32:11,-38.0023,-57.5575,46.42,66,75,9.22
79,Bethel,US,2021-08-12 02:32:12,41.3712,-73.414,80.01,82,75,1.01
80,Provideniya,RU,2021-08-12 02:30:56,64.3833,-173.3,41.11,81,90,6.71
81,Galle,LK,2021-08-12 02:32:12,6.0367,80.217,79.52,85,98,15.17
82,Narsaq,GL,2021-08-12 02:30:27,60.9167,-46.05,50.22,75,90,1.63
83,Malaya Serdoba,RU,2021-08-12 02:32:13,52.4661,44.9512,72.54,40,24,16.17
84,Honningsvag,NO,2021-08-12 02:32:13,70.9821,25.9704,51.94,96,100,13.98
85,Sitia,GR,2021-08-12 02:32:13,35.2,26.0986,80.6,58,0,8.28
86,Bredasdorp,ZA,2021-08-12 02:30:24,-34.5322,20.0403,49.32,81,100,6.91
87,Nanortalik,GL,2021-08-12 02:32:14,60.1432,-45.2371,44.69,84,59,10.49
88,San Cristobal,VE,2021-08-12 02:32:14,7.7669,-72.225,75.38,98,97,2.15
89,Georgetown,MY,2021-08-12 02:29:09,5.4112,100.3354,85.93,79,20,2.3
90,Dong Hoi,VN,2021-08-12 02:32:15,17.4833,106.6,92.19,56,98,8.68
91,Cockburn Town,TC,2021-08-12 02:26:08,21.4612,-71.1419,82.0,70,7,25.55
92,Oriximina,BR,2021-08-12 02:32:15,-1.7656,-55.8661,76.82,76,38,3.87
93,Karratha,AU,2021-08-12 02:32:15,-20.7377,116.8463,73.89,18,0,21.12
94,Hirara,JP,2021-08-12 02:30:31,24.8,125.2833,80.87,94,75,13.8
95,Druzhinino,RU,2021-08-12 02:32:16,56.7895,59.5143,53.19,72,4,3.02
96,Manakara,MG,2021-08-12 02:32:16,-22.1333,48.0167,62.4,91,3,4.52
97,Lodja,CD,2021-08-12 02:32:16,-3.4833,23.4333,69.26,81,88,1.92
98,Coahuayana,MX,2021-08-12 02:32:17,18.7333,-103.6833,78.28,89,84,2.75
99,Tuktoyaktuk,CA,2021-08-12 02:27:33,69.4541,-133.0374,62.6,63,75,11.5
100,Paamiut,GL,2021-08-12 02:32:17,61.994,-49.6678,43.72,86,95,10.6
101,Dornoch,GB,2021-08-12 02:32:17,57.8805,-4.0288,50.45,94,83,4.25
102,La Crosse,US,2021-08-12 02:32:18,43.8014,-91.2396,75.13,60,1,9.22
103,Pevek,RU,2021-08-12 02:29:40,69.7008,170.3133,40.32,71,65,5.03
104,Hithadhoo,MV,2021-08-12 02:32:18,-0.6,73.0833,82.36,73,100,14.36
105,Caravelas,BR,2021-08-12 02:28:24,-17.7125,-39.2481,68.68,93,6,4.07
106,Abu Samrah,SY,2021-08-12 02:32:19,35.3029,37.1841,77.0,52,0,3.36
107,Mahebourg,MU,2021-08-12 02:30:50,-20.4081,57.7,71.89,83,75,9.22
108,Pamekasan,ID,2021-08-12 02:32:19,-7.1568,113.4746,87.03,52,8,5.5
109,Cherskiy,RU,2021-08-12 02:32:20,68.75,161.3,68.34,33,77,5.95
110,Tiksi,RU,2021-08-12 02:32:20,71.6872,128.8694,59.9,66,100,8.84
111,Bluff,NZ,2021-08-12 02:30:15,-46.6,168.3333,58.8,73,99,16.49
112,Santa Rita,BR,2021-08-12 02:32:20,-7.1139,-34.9781,74.07,100,90,5.75
113,Kazachka,RU,2021-08-12 02:32:21,53.3644,38.0694,66.16,85,100,5.46
114,Elizabeth City,US,2021-08-12 02:30:22,36.2946,-76.2511,86.02,90,1,1.01
115,Arlit,NE,2021-08-12 02:32:21,18.7369,7.3853,90.25,40,64,17.05
116,Ayan,RU,2021-08-12 02:32:21,56.45,138.1667,66.56,72,1,6.73
117,Qui Nhon,VN,2021-08-12 02:32:22,13.7667,109.2333,90.09,56,100,5.73
118,Havoysund,NO,2021-08-12 02:32:22,70.9963,24.6622,52.11,97,100,12.62
119,Tiznit,MA,2021-08-12 02:32:22,29.5833,-9.5,65.93,69,3,0.58
120,Port Shepstone,ZA,2021-08-12 02:28:21,-30.7414,30.455,66.25,67,0,22.5
121,Tigzirt,DZ,2021-08-12 02:32:23,36.8886,4.1198,88.14,29,0,9.17
122,Ust-Nera,RU,2021-08-12 02:32:23,64.5667,143.2,75.83,37,100,6.6
123,Lerwick,GB,2021-08-12 02:32:23,60.1545,-1.1494,57.2,96,100,13.67
124,Geraldton,AU,2021-08-12 02:29:54,-28.7667,114.6,59.41,72,0,14.97
125,San Policarpo,PH,2021-08-12 02:32:24,12.1791,125.5072,85.17,69,79,6.58
126,Shenjiamen,CN,2021-08-12 02:32:24,29.9576,122.298,79.7,93,100,15.17
127,College,US,2021-08-12 02:25:13,64.8569,-147.8028,67.98,57,75,3.44
128,Gaya,IN,2021-08-12 02:29:30,24.7833,85.0,78.71,100,90,13.8
129,Yar-Sale,RU,2021-08-12 02:32:25,66.8333,70.8333,60.71,57,99,7.56
130,Laguna,US,2021-08-12 02:32:25,38.421,-121.4238,98.46,28,1,5.99
131,Ponta Do Sol,PT,2021-08-12 02:28:39,32.6667,-17.1,74.03,77,19,4.45
132,Crisan,RO,2021-08-12 02:32:26,44.9667,29.4667,70.39,63,0,8.1
133,Pinos,MX,2021-08-12 02:32:26,22.3,-101.5667,58.05,58,0,15.99
134,Itaueira,BR,2021-08-12 02:32:26,-7.6033,-43.0256,76.69,41,0,6.4
135,Busselton,AU,2021-08-12 02:30:07,-33.65,115.3333,59.04,74,91,7.9
136,Sainte-Marie,RE,2021-08-12 02:32:27,-20.8968,55.5496,69.96,78,0,10.36
137,Fukue,JP,2021-08-12 02:29:19,32.6881,128.8419,77.36,100,75,6.91
138,Namibe,AO,2021-08-12 02:30:47,-15.1961,12.1522,61.43,90,9,11.01
139,Ballina,AU,2021-08-12 02:27:20,-28.8667,153.5667,75.78,53,40,3.44
140,Port Elizabeth,ZA,2021-08-12 02:30:13,-33.918,25.5701,57.49,62,0,18.41
141,Inta,RU,2021-08-12 02:32:28,66.0317,60.1659,61.43,65,100,11.95
142,Leshukonskoye,RU,2021-08-12 02:32:28,64.8989,45.7622,62.24,99,100,3.83
143,Grand Gaube,MU,2021-08-12 02:32:28,-20.0064,57.6608,72.0,84,11,5.01
144,Ambilobe,MG,2021-08-12 02:32:29,-13.2,49.05,68.52,75,48,3.15
145,Palmer,US,2021-08-12 02:25:20,42.1584,-72.3287,81.21,75,40,5.01
146,Ilulissat,GL,2021-08-12 02:32:29,69.2167,-51.1,44.62,81,75,4.61
147,Iracoubo,GF,2021-08-12 02:32:30,5.4802,-53.2011,76.78,88,100,4.68
148,Seguela,CI,2021-08-12 02:32:30,7.9611,-6.6731,70.25,97,99,8.77
149,Baneh,IR,2021-08-12 02:32:30,35.9975,45.8853,72.82,29,26,3.94
150,Stornoway,GB,2021-08-12 02:28:41,58.2093,-6.3865,48.92,100,75,0.0
151,Praia,CV,2021-08-12 02:32:31,14.9215,-23.5087,77.54,69,75,10.36
152,Sao Filipe,CV,2021-08-12 02:27:38,14.8961,-24.4956,74.82,78,54,10.38
153,Cape Town,ZA,2021-08-12 02:30:35,-33.9258,18.4232,51.89,93,75,4.0
154,Ribeira Grande,PT,2021-08-12 02:30:16,38.5167,-28.7,72.88,86,57,15.82
155,Angoche,MZ,2021-08-12 02:32:31,-16.2325,39.9086,64.38,81,0,5.73
156,Lahaina,US,2021-08-12 02:30:15,20.8783,-156.6825,87.04,73,66,7.83
157,Orlik,RU,2021-08-12 02:29:31,52.5178,99.825,67.15,58,86,1.12
158,Coihaique,CL,2021-08-12 02:32:32,-45.5752,-72.0662,35.55,80,1,5.75
159,Artigas,UY,2021-08-12 02:32:32,-30.4,-56.4667,39.51,75,1,7.78
160,Santa Marta,CO,2021-08-12 02:32:33,11.2408,-74.199,81.99,87,75,3.44
161,Portland,US,2021-08-12 02:32:20,45.5234,-122.6762,101.39,35,20,1.01
162,Klaksvik,FO,2021-08-12 02:32:33,62.2266,-6.589,54.52,98,100,13.76
163,Wamba,NG,2021-08-12 02:32:33,8.9333,8.6,70.72,98,100,3.42
164,Kaitangata,NZ,2021-08-12 02:31:04,-46.2817,169.8464,55.67,61,100,12.19
165,Emerald,AU,2021-08-12 02:32:34,-23.5333,148.1667,75.34,50,0,8.05
166,Luanda,AO,2021-08-12 02:28:32,-8.8368,13.2343,72.27,82,80,7.45
167,Rodrigues Alves,BR,2021-08-12 02:27:41,-7.738,-72.6509,78.33,53,100,0.92
168,Pandan,PH,2021-08-12 02:32:35,14.0453,124.1694,86.52,67,100,2.62
169,Lata,PT,2021-08-12 02:32:35,40.1629,-8.3327,64.92,93,67,2.44
170,Halifax,CA,2021-08-12 02:30:17,44.6453,-63.5724,69.69,93,96,1.99
171,Gharghoda,IN,2021-08-12 02:32:36,22.1667,83.35,83.35,74,100,4.09
172,Shimoda,JP,2021-08-12 02:32:36,34.6667,138.95,79.16,89,100,18.88
173,Krotoszyn,PL,2021-08-12 02:30:27,51.6987,17.4374,53.74,73,0,3.89
174,Naze,JP,2021-08-12 02:32:37,28.3667,129.4833,83.32,84,49,19.91
175,Vilhena,BR,2021-08-12 02:32:37,-12.7406,-60.1458,68.22,53,66,3.87
176,Cidreira,BR,2021-08-12 02:32:37,-30.1811,-50.2056,47.61,73,1,6.06
177,Tabas,IR,2021-08-12 02:32:37,33.5959,56.9244,86.77,10,0,1.9
178,Pisco,PE,2021-08-12 02:31:20,-13.7,-76.2167,60.85,77,90,6.91
179,Castro,BR,2021-08-12 02:28:05,-24.7911,-50.0119,51.46,97,100,7.76
180,Luganville,VU,2021-08-12 02:30:23,-15.5333,167.1667,76.53,81,94,18.07
181,The Valley,AI,2021-08-12 02:30:23,18.217,-63.0578,82.26,81,49,21.14
182,Maniitsoq,GL,2021-08-12 02:30:57,65.4167,-52.9,43.83,81,66,6.67
183,Banda Aceh,ID,2021-08-12 02:30:16,5.5577,95.3222,85.21,64,100,12.19
184,Meulaboh,ID,2021-08-12 02:28:46,4.1363,96.1285,78.57,78,100,4.29
185,Clyde River,CA,2021-08-12 02:31:08,70.4692,-68.5914,50.23,66,90,16.11
186,Warri,NG,2021-08-12 02:32:39,5.5167,5.75,73.44,95,100,3.31
187,Vardo,NO,2021-08-12 02:28:27,70.3705,31.1107,51.96,95,65,2.77
188,Tromso,NO,2021-08-12 02:28:04,69.6496,18.957,54.25,94,90,9.22
189,Mbigou,GA,2021-08-12 02:32:39,-1.9005,11.906,65.1,98,91,3.78
190,Altamont,US,2021-08-12 02:32:40,42.2068,-121.7372,91.24,17,1,3.0
191,Cozumel,MX,2021-08-12 02:32:40,20.5083,-86.9458,82.38,88,75,3.0
192,Ancud,CL,2021-08-12 02:30:39,-41.8697,-73.8203,42.33,85,0,2.26
193,Ransang,PH,2021-08-12 02:32:41,8.9603,117.5828,87.6,61,27,3.06
194,Catuday,PH,2021-08-12 02:32:41,16.2923,119.8062,79.05,77,100,3.53
195,Fairbanks,US,2021-08-12 02:30:00,64.8378,-147.7164,68.0,57,1,0.0
196,Hovd,MN,2021-08-12 02:32:41,48.0056,91.6419,68.81,39,33,2.8
197,Puerto Ayora,EC,2021-08-12 02:27:32,-0.7393,-90.3518,69.55,87,94,5.99
198,Fortuna,US,2021-08-12 02:32:42,40.5982,-124.1573,61.93,83,1,1.01
199,East London,ZA,2021-08-12 02:30:10,-33.0153,27.9116,58.46,72,9,15.99
200,Ranong,TH,2021-08-12 02:32:42,9.9658,98.6348,76.93,75,90,11.97
201,Ninghai,CN,2021-08-12 02:32:43,29.2892,121.4247,83.88,90,100,1.36
202,Benjamin Aceval,PY,2021-08-12 02:32:43,-24.9667,-57.5667,59.14,45,100,6.55
203,Anadyr,RU,2021-08-12 02:32:43,64.75,177.4833,45.1,81,90,13.42
204,Taoudenni,ML,2021-08-12 02:32:44,22.6783,-3.9836,100.51,15,58,10.6
205,Lompoc,US,2021-08-12 02:31:15,34.6391,-120.4579,78.21,80,1,10.36
206,Oktyabrskoye,RU,2021-08-12 02:29:23,43.0645,44.7417,68.14,83,98,8.95
207,Atocha,BO,2021-08-12 02:32:44,-20.9333,-66.2333,42.57,26,0,14.63
208,Gizo,SB,2021-08-12 02:31:15,-8.103,156.8419,77.23,89,100,13.29
209,Ulaangom,MN,2021-08-12 02:28:04,49.9811,92.0667,66.99,57,42,2.15
210,Cedar City,US,2021-08-12 02:28:03,37.6775,-113.0619,79.77,19,1,9.22
211,Breves,BR,2021-08-12 02:29:02,-1.6822,-50.4803,74.03,97,89,3.89
212,Barra Do Garcas,BR,2021-08-12 02:32:45,-15.89,-52.2567,71.19,33,2,4.54
213,Bara,NG,2021-08-12 02:28:38,10.3744,10.7288,72.14,95,100,6.82
214,Kawalu,ID,2021-08-12 02:32:45,-7.3817,108.2082,80.33,64,33,5.39
215,Roma,US,2021-08-12 02:32:46,43.2128,-75.4557,79.65,91,1,3.44
216,Nobeoka,JP,2021-08-12 02:32:46,32.5833,131.6667,74.93,97,100,2.39
217,Khatanga,RU,2021-08-12 02:32:46,71.9667,102.5,46.56,78,100,16.51
218,Olafsvik,IS,2021-08-12 02:30:27,64.8945,-23.7142,54.95,82,7,5.03
219,Nemuro,JP,2021-08-12 02:31:12,43.3236,145.575,63.03,66,25,2.46
220,Twin Falls,US,2021-08-12 02:32:47,42.3505,-114.6445,85.89,26,1,4.61
221,Tyup,KG,2021-08-12 02:32:47,42.7276,78.3648,71.96,30,12,3.13
222,Arica,CL,2021-08-12 02:27:51,-18.475,-70.3042,59.23,77,90,3.44
223,Sao Joao Da Barra,BR,2021-08-12 02:27:50,-21.6403,-41.0511,69.22,79,3,13.71
224,Brae,GB,2021-08-12 02:28:47,60.3964,-1.353,57.11,94,100,12.77
225,Stromness,GB,2021-08-12 02:29:29,58.965,-3.296,53.87,89,96,4.0
226,Mayumba,GA,2021-08-12 02:32:48,-3.432,10.6554,74.01,85,97,5.21
227,Miramar,US,2021-08-12 02:30:28,25.9873,-80.2323,85.01,78,1,8.05
228,Dhar,IN,2021-08-12 02:32:48,22.6,75.3,74.3,86,100,10.36
229,Dryden,CA,2021-08-12 02:30:07,49.7833,-92.7503,61.09,77,90,8.05
230,Ellisras,ZA,2021-08-12 02:32:49,-23.6649,27.7443,50.36,83,1,4.7
231,Santa Elena,EC,2021-08-12 02:32:49,-2.2333,-80.85,68.05,83,100,9.91
232,Narragansett,US,2021-08-12 02:32:49,41.4501,-71.4495,77.9,80,40,7.0
233,Port Hedland,AU,2021-08-12 02:32:50,-20.3167,118.5667,71.65,12,0,21.85
234,San Quintin,MX,2021-08-12 02:32:50,30.4833,-115.95,72.23,76,2,4.94
235,Westport,US,2021-08-12 02:31:03,41.1415,-73.3579,81.27,85,40,8.99
236,Guerrero Negro,MX,2021-08-12 02:31:14,27.9769,-114.0611,76.96,70,31,13.49
237,Gat,IL,2021-08-12 02:32:50,31.61,34.7642,80.4,78,0,3.49
238,Oksfjord,NO,2021-08-12 02:32:51,70.2396,22.3479,55.47,99,100,6.76
239,Ahvaz,IR,2021-08-12 02:32:51,31.3203,48.6693,85.95,28,0,2.3
240,Mariestad,SE,2021-08-12 02:32:51,58.7097,13.8237,55.87,96,56,7.85
241,Montale,IT,2021-08-12 02:32:52,43.9356,11.0171,75.92,70,0,5.99
242,Katsuura,JP,2021-08-12 02:32:52,35.1333,140.3,82.42,83,100,16.26
243,Zaysan,KZ,2021-08-12 02:32:52,47.4667,84.8667,77.43,37,66,4.21
244,Isangel,VU,2021-08-12 02:32:53,-19.55,169.2667,77.11,53,40,11.5
245,Krasnozerskoye,RU,2021-08-12 02:32:53,53.9828,79.2374,59.45,97,100,6.04
246,Vestmannaeyjar,IS,2021-08-12 02:32:53,63.4427,-20.2734,54.52,82,100,11.92
247,Sakaiminato,JP,2021-08-12 02:32:53,35.55,133.2333,75.18,94,75,1.14
248,Burgeo,CA,2021-08-12 02:32:54,47.6167,-57.6152,63.0,94,100,1.43
249,Mount Gambier,AU,2021-08-12 02:32:54,-37.8333,140.7667,57.11,72,75,18.41
250,Jutai,BR,2021-08-12 02:32:55,-5.1833,-68.9,76.53,60,20,2.3
251,Mongoumba,CF,2021-08-12 02:32:55,3.6415,18.5936,71.28,94,100,2.75
252,Wakkanai,JP,2021-08-12 02:32:55,45.4094,141.6739,67.98,60,20,9.22
253,Saint-Augustin,CA,2021-08-12 02:32:55,51.226,-58.6502,56.59,72,100,12.15
254,Longyearbyen,SJ,2021-08-12 02:28:38,78.2186,15.6401,46.24,93,90,6.91
255,Norman Wells,CA,2021-08-12 02:32:56,65.282,-126.8329,60.84,72,75,3.44
256,Mayskiy,RU,2021-08-12 02:32:56,47.6931,40.1025,69.21,76,5,4.81
257,Toguchin,RU,2021-08-12 02:32:56,55.2353,84.3858,60.4,95,100,8.03
258,Swindon,GB,2021-08-12 02:30:24,51.558,-1.7812,62.89,88,90,1.01
259,Lunenburg,CA,2021-08-12 02:32:57,44.3835,-64.3155,70.48,97,59,6.91
260,Kuvandyk,RU,2021-08-12 02:32:57,51.4781,57.3552,61.03,59,2,13.58
261,Itapetininga,BR,2021-08-12 02:32:58,-23.5917,-48.0531,54.1,92,100,11.5
262,Samarai,PG,2021-08-12 02:32:58,-10.6167,150.6667,79.14,84,67,13.91
263,Pacific Grove,US,2021-08-12 02:32:00,36.6177,-121.9166,77.25,84,1,5.01
264,Novovasylivka,UA,2021-08-12 02:32:58,46.8315,35.7536,74.8,59,100,4.79
265,Port Blair,IN,2021-08-12 02:28:52,11.6667,92.75,81.52,82,100,7.54
266,Yerbogachen,RU,2021-08-12 02:32:59,61.2767,108.0108,76.19,39,6,6.2
267,Segou,ML,2021-08-12 02:32:59,13.4317,-6.2157,75.4,77,100,2.37
268,Deputatskiy,RU,2021-08-12 02:29:20,69.3,139.9,63.59,63,100,1.52
269,Hoima,UG,2021-08-12 02:33:00,1.4356,31.3436,61.72,94,51,1.36
270,Coquimbo,CL,2021-08-12 02:31:02,-29.9533,-71.3436,53.33,76,90,3.44
271,Grado,ES,2021-08-12 02:33:00,43.388,-6.0743,78.03,97,90,5.75
272,Chuy,UY,2021-08-12 02:30:12,-33.6971,-53.4616,42.17,85,5,3.09
273,Chumikan,RU,2021-08-12 02:33:01,54.7183,135.315,73.99,50,6,14.7
274,Visnes,NO,2021-08-12 02:30:35,59.3556,5.2242,60.22,88,75,8.05
275,Ho Chi Minh City,VN,2021-08-12 02:31:33,10.75,106.6667,87.82,74,40,8.05
276,Nikolskoye,RU,2021-08-12 02:31:16,59.7035,30.7861,57.02,73,100,4.9
277,Zolotonosha,UA,2021-08-12 02:33:01,49.6689,32.0377,63.88,70,0,10.09
278,Altamira,BR,2021-08-12 02:30:45,-3.2033,-52.2064,78.62,65,62,4.12
279,Vinh,VN,2021-08-12 02:33:02,18.6667,105.6667,93.6,54,52,4.72
280,Cherdyn,RU,2021-08-12 02:33:02,60.403,56.4787,55.42,68,99,5.19
281,Marsh Harbour,BS,2021-08-12 02:33:02,26.5412,-77.0636,83.43,73,9,14.16
282,Gobabis,NA,2021-08-12 02:33:03,-22.45,18.9667,51.03,42,8,2.26
283,Magadan,RU,2021-08-12 02:33:03,59.5667,150.8,63.5,77,18,6.35
284,Torzhok,RU,2021-08-12 02:33:04,57.0436,34.9622,61.88,99,100,4.18
285,Zabol,AF,2021-08-12 02:33:04,32.25,67.25,77.32,11,0,5.93
286,Crissier,CH,2021-08-12 02:33:04,46.5517,6.5713,70.72,79,1,2.24
287,Sao Miguel Do Araguaia,BR,2021-08-12 02:33:05,-13.275,-50.1628,76.87,28,4,3.62
288,Baoro,CF,2021-08-12 02:33:05,5.6667,15.9667,67.35,98,100,3.24
289,Jangaon,IN,2021-08-12 02:33:05,17.7167,79.1833,83.52,63,100,9.51
290,Lagos,NG,2021-08-12 02:32:49,6.5833,3.75,75.52,93,98,5.21
291,Nueva Loja,EC,2021-08-12 02:33:06,0.0847,-76.8828,68.36,94,64,1.36
292,Fort Nelson,CA,2021-08-12 02:30:07,58.8053,-122.7002,69.39,37,40,8.05
293,Hasaki,JP,2021-08-12 02:30:32,35.7333,140.8333,82.69,73,100,7.4
294,Nichinan,JP,2021-08-12 02:33:06,31.6,131.3667,81.55,89,100,7.43
295,Roebourne,AU,2021-08-12 02:33:06,-20.7833,117.1333,73.53,18,0,21.39
296,Phon Thong,TH,2021-08-12 02:33:07,16.3016,103.9768,82.27,74,98,9.51
297,Balabac,PH,2021-08-12 02:33:07,7.9868,117.0645,86.07,68,59,13.04
298,Souillac,MU,2021-08-12 02:33:07,-20.5167,57.5167,71.98,83,75,9.22
299,Koplik,AL,2021-08-12 02:33:08,42.2136,19.4364,82.0,54,0,5.1
300,Ewa Beach,US,2021-08-12 02:30:56,21.3156,-158.0072,87.75,55,90,6.91
301,Shepsi,RU,2021-08-12 02:33:08,44.0361,39.1489,74.44,82,65,8.43
302,Bouna,CI,2021-08-12 02:33:08,9.2667,-3.0,70.45,96,70,6.71
303,Dikson,RU,2021-08-12 02:28:00,73.5069,80.5464,42.67,87,23,9.89
304,Moussoro,TD,2021-08-12 02:28:41,13.6408,16.4901,75.9,77,100,9.24
305,Kruisfontein,ZA,2021-08-12 02:33:09,-34.0033,24.7314,47.88,81,28,12.68
306,Hillsborough,US,2021-08-12 02:33:09,37.5741,-122.3794,80.19,76,20,18.41
307,Bonnyville,CA,2021-08-12 02:33:10,54.2668,-110.735,64.2,73,47,12.41
308,Rafai,CF,2021-08-12 02:33:10,4.95,23.9167,67.41,99,96,0.51
309,Batelov,CZ,2021-08-12 02:33:10,49.3143,15.3947,57.83,92,13,1.86
310,Chernyshevskiy,RU,2021-08-12 02:33:11,63.0128,112.4714,75.9,34,9,1.68
311,Kudahuvadhoo,MV,2021-08-12 02:32:17,2.6708,72.8944,83.12,73,99,15.05
312,Bardiyah,LY,2021-08-12 02:33:11,31.7561,25.0865,78.33,82,0,10.83
313,Broken Hill,AU,2021-08-12 02:33:12,-31.95,141.4333,56.91,47,0,10.36
314,Sept-Iles,CA,2021-08-12 02:33:01,50.2001,-66.3821,66.72,92,20,5.99
315,Hamilton,US,2021-08-12 02:30:43,39.1834,-84.5333,85.08,76,1,9.22
316,Sola,VU,2021-08-12 02:33:12,-13.8833,167.55,78.13,77,69,29.04
317,Atambua,ID,2021-08-12 02:31:35,-9.1061,124.8925,86.45,47,31,4.63
318,Gopalpur,IN,2021-08-12 02:32:44,19.2667,84.9167,89.96,61,100,4.9
319,Hualmay,PE,2021-08-12 02:33:13,-11.0964,-77.6139,61.9,82,29,8.48
320,Taihe,CN,2021-08-12 02:33:13,30.8712,105.3845,79.16,80,100,7.34
321,Shingu,JP,2021-08-12 02:33:13,33.7333,135.9833,79.92,98,100,8.25
322,Maarianhamina,AX,2021-08-12 02:33:13,60.0973,19.9348,51.66,100,90,1.14
323,Normandin,CA,2021-08-12 02:33:14,48.8333,-72.5321,75.51,94,21,5.75
324,Samandag,TR,2021-08-12 02:33:14,36.0842,35.9771,73.92,68,0,1.7
325,Gopalur,IN,2021-08-12 02:33:15,16.6167,77.8,82.56,68,100,11.63
326,Namatanai,PG,2021-08-12 02:33:15,-3.6667,152.4333,83.44,74,94,2.93
327,Daru,PG,2021-08-12 02:29:08,-9.0763,143.2092,79.52,84,62,15.7
328,Sur,OM,2021-08-12 02:32:35,22.5667,59.5289,88.23,59,8,4.74
329,Gamba,GA,2021-08-12 02:33:16,-2.65,10.0,73.13,89,71,4.54
330,Semey,KZ,2021-08-12 02:33:16,50.4111,80.2275,61.02,88,0,2.24
331,Tabou,CI,2021-08-12 02:31:07,4.423,-7.3528,77.07,82,98,11.39
332,Ayutla,MX,2021-08-12 02:33:17,20.1167,-104.3333,64.89,91,84,2.04
333,Praia Da Vitoria,PT,2021-08-12 02:33:17,38.7333,-27.0667,72.75,88,20,13.33
334,Beloha,MG,2021-08-12 02:33:17,-25.1667,45.05,61.74,74,0,7.58
335,Yumen,CN,2021-08-12 02:27:59,40.2833,97.2,74.88,33,0,10.29
336,Roald,NO,2021-08-12 02:33:18,62.5833,6.1333,61.32,94,90,2.3
337,Salalah,OM,2021-08-12 02:33:18,17.0151,54.0924,77.09,83,90,5.75
338,Ler,SS,2021-08-12 02:30:21,8.3018,30.1418,70.16,96,96,4.29
339,Kon Tum,VN,2021-08-12 02:33:19,14.35,108.0,81.36,74,98,4.41
340,Neuquen,AR,2021-08-12 02:29:17,-38.9516,-68.0591,40.89,70,0,2.3
341,Kuzedeyevo,RU,2021-08-12 02:33:19,53.3308,87.2019,69.6,62,86,5.59
342,Kavieng,PG,2021-08-12 02:31:17,-2.5744,150.7967,83.89,70,47,4.81
343,Shemursha,RU,2021-08-12 02:33:20,54.8866,47.5189,63.28,53,4,9.89
344,Leningradskiy,RU,2021-08-12 02:30:48,69.3833,178.4167,39.34,80,96,5.68
345,Makakilo City,US,2021-08-12 02:32:13,21.3469,-158.0858,86.32,55,90,6.91
346,Hofn,IS,2021-08-12 02:33:20,64.2539,-15.2082,52.18,84,100,7.78
347,Kavaratti,IN,2021-08-12 02:33:21,10.5669,72.642,82.04,79,100,17.34
348,Yarada,IN,2021-08-12 02:33:21,17.65,83.2667,86.32,74,20,4.61
349,Vostok,RU,2021-08-12 02:29:44,46.4856,135.8833,70.45,42,11,3.89
350,Bathsheba,BB,2021-08-12 02:33:22,13.2167,-59.5167,81.21,78,40,14.97
351,Kargasok,RU,2021-08-12 02:33:22,59.0556,80.8572,49.59,86,100,13.02
352,Nouakchott,MR,2021-08-12 02:33:22,18.0858,-15.9785,78.73,61,73,20.27
353,Bowling Green,US,2021-08-12 02:30:01,36.9903,-86.4436,82.92,80,1,6.87
354,Ladushkin,RU,2021-08-12 02:33:23,54.5703,20.171,58.86,82,13,11.74
355,Dudinka,RU,2021-08-12 02:33:23,69.4058,86.1778,43.77,90,100,9.24
356,Boyolangu,ID,2021-08-12 02:33:24,-8.1181,111.8935,81.19,73,66,12.77
357,Bloomfield,US,2021-08-12 02:33:24,40.8068,-74.1854,80.24,90,40,1.01
358,Waipawa,NZ,2021-08-12 02:29:45,-41.4122,175.5153,54.23,69,95,20.71
359,Biak,ID,2021-08-12 02:31:08,-0.9131,122.8766,82.11,73,56,6.29
360,Airai,TL,2021-08-12 02:33:25,-8.9266,125.4092,76.33,44,33,6.78
361,Mehamn,NO,2021-08-12 02:31:44,71.0357,27.8492,53.24,97,99,16.31
362,Sisimiut,GL,2021-08-12 02:33:25,66.9395,-53.6735,43.99,80,31,6.98
363,San Jose,US,2021-08-12 02:31:11,37.3394,-121.895,83.84,54,20,3.0
364,Antofagasta,CL,2021-08-12 02:33:25,-23.65,-70.4,56.48,76,96,6.24
365,Lorengau,PG,2021-08-12 02:33:26,-2.0226,147.2712,86.05,63,34,6.78
366,Krasnozatonskiy,RU,2021-08-12 02:33:26,61.6758,50.9794,57.42,94,20,6.71
367,Beringovskiy,RU,2021-08-12 02:33:26,63.05,179.3167,44.76,84,90,7.49
368,Kloulklubed,PW,2021-08-12 02:29:30,7.0419,134.2556,86.5,73,100,10.58
369,Rocha,UY,2021-08-12 02:33:27,-34.4833,-54.3333,39.43,91,0,3.36
370,Kayes,ML,2021-08-12 02:29:48,14.0,-11.0,74.64,93,57,5.3
371,Bengkulu,ID,2021-08-12 02:33:27,-3.8004,102.2655,82.85,68,99,4.63
372,Constitucion,CL,2021-08-12 02:33:27,-35.3333,-72.4167,47.93,71,0,1.97
373,Kungsbacka,SE,2021-08-12 02:33:28,57.4872,12.0761,63.18,82,67,5.99
374,Ahipara,NZ,2021-08-12 02:33:28,-35.1667,173.1667,57.52,62,9,7.63
375,Linxia,CN,2021-08-12 02:32:06,35.6003,103.2064,72.16,41,99,3.85
376,Margate,GB,2021-08-12 02:30:36,51.3813,1.3862,60.91,85,100,1.99
377,Qaqortoq,GL,2021-08-12 02:29:10,60.7167,-46.0333,50.5,80,79,1.9
378,Upington,ZA,2021-08-12 02:30:37,-28.4478,21.2561,46.78,81,20,9.22
379,Meadow Lake,US,2021-08-12 02:33:29,34.8014,-106.5436,83.64,40,71,11.41
380,Saldanha,ZA,2021-08-12 02:30:47,-33.0117,17.9442,51.85,83,100,22.1
381,Bilibino,RU,2021-08-12 02:33:29,68.0546,166.4372,64.44,35,100,3.98
382,Belgaum,IN,2021-08-12 02:33:30,15.8667,74.5,69.71,94,75,4.61
383,Sinnamary,GF,2021-08-12 02:30:29,5.3833,-52.95,77.2,87,100,4.74
384,Paka,MY,2021-08-12 02:33:30,4.6374,103.4368,84.13,74,20,0.0
385,Mastic Beach,US,2021-08-12 02:33:31,40.7668,-72.8521,80.64,89,1,3.0
386,Esperance,AU,2021-08-12 02:30:27,-33.8667,121.9,58.84,59,16,12.39
387,Kaeo,NZ,2021-08-12 02:30:41,-35.1,173.7833,61.32,71,33,8.93
388,Hambantota,LK,2021-08-12 02:33:31,6.1241,81.1185,80.94,89,75,14.97
389,Bama,NG,2021-08-12 02:33:32,11.5221,13.6856,73.44,93,100,6.26
390,Lillooet,CA,2021-08-12 02:33:32,50.6856,-121.942,97.56,35,7,5.39
391,Hailar,CN,2021-08-12 02:33:33,49.2,119.7,61.48,76,100,10.8
392,Urengoy,RU,2021-08-12 02:33:33,65.9667,78.3667,53.96,58,53,7.25
393,Carnot,CF,2021-08-12 02:33:33,4.9409,15.8665,69.1,98,100,2.46
394,Longjiang,CN,2021-08-12 02:33:34,47.3303,123.1836,68.72,65,27,12.44
395,Goderich,CA,2021-08-12 02:30:08,43.7501,-81.7165,73.9,83,26,16.11
396,Nakhon Sawan,TH,2021-08-12 02:33:34,15.7,100.0833,88.47,65,87,7.2
397,Sao Paulo De Olivenca,BR,2021-08-12 02:33:34,-3.3783,-68.8725,75.38,77,34,2.26
398,Mataquescuintla,GT,2021-08-12 02:33:35,14.5292,-90.1842,60.82,97,18,2.57
399,Rio Gallegos,AR,2021-08-12 02:33:35,-51.6226,-69.2181,48.25,53,0,24.16
400,Port Lincoln,AU,2021-08-12 02:30:10,-34.7333,135.8667,60.33,61,13,12.08
401,San Ignacio,BZ,2021-08-12 02:33:35,17.1561,-89.0714,75.45,91,100,3.06
402,Mogok,MM,2021-08-12 02:33:36,22.9167,96.5,67.55,99,100,3.13
403,Isetskoye,RU,2021-08-12 02:33:36,56.4858,65.3226,56.86,62,22,12.06
404,Kazincbarcika,HU,2021-08-12 02:33:36,48.25,20.6333,61.38,81,3,2.46
405,Sorland,NO,2021-08-12 02:31:15,67.667,12.6934,54.46,94,100,8.3
406,Baglung,NP,2021-08-12 02:33:37,28.2719,83.5898,71.67,96,100,0.81
407,Ipubi,BR,2021-08-12 02:33:37,-7.6519,-40.1489,68.25,60,2,4.32
408,Mega,ET,2021-08-12 02:33:38,4.05,38.3,56.14,80,76,14.76
409,Ostrovnoy,RU,2021-08-12 02:33:38,68.0531,39.5131,58.6,78,97,10.2
410,Suleja,NG,2021-08-12 02:33:17,9.1758,7.1808,72.59,99,100,2.71
411,Calbuco,CL,2021-08-12 02:28:57,-41.768,-73.1273,38.41,81,0,12.91
412,Bac Lieu,VN,2021-08-12 02:33:39,9.285,105.7244,85.41,69,98,7.29
413,Visavadar,IN,2021-08-12 02:33:39,21.3833,70.6833,80.53,73,100,9.46
414,Waddan,LY,2021-08-12 02:33:39,29.1614,16.139,83.14,24,0,3.47
415,Tecolutla,MX,2021-08-12 02:33:40,20.4833,-97.0167,80.83,79,4,6.04
416,Youhao,CN,2021-08-12 02:33:40,47.8667,128.8333,63.3,77,100,5.48
417,Belmonte,BR,2021-08-12 02:33:40,-15.8631,-38.8828,68.5,86,7,3.56
418,Alyangula,AU,2021-08-12 02:33:41,-13.8483,136.4192,85.87,45,0,13.8
419,Calabozo,VE,2021-08-12 02:29:53,8.9242,-67.4293,75.18,91,47,3.0
420,Vao,NC,2021-08-12 02:33:41,-22.6667,167.4833,68.0,57,42,20.38
421,Salvador,SV,2021-08-12 02:33:41,13.8333,-88.9167,73.8,96,99,1.21
422,Half Moon Bay,US,2021-08-12 02:33:42,37.4636,-122.4286,80.78,76,1,9.22
423,Olinda,BR,2021-08-12 02:29:54,-8.0089,-34.8553,73.13,94,40,9.22
424,Iqaluit,CA,2021-08-12 02:29:48,63.7506,-68.5145,42.53,81,75,16.11
425,San Vicente,AR,2021-08-12 02:30:40,-26.6167,-54.1333,47.34,77,72,5.35
426,Liepaja,LV,2021-08-12 02:33:43,56.5419,21.0367,60.85,100,20,2.3
427,Wanning,CN,2021-08-12 02:33:43,18.8003,110.3967,89.24,69,98,9.84
428,Itumba,TZ,2021-08-12 02:33:43,-9.4,33.1833,53.04,96,15,5.3
429,Wassenberg,DE,2021-08-12 02:33:44,51.1,6.15,61.23,92,0,2.3
430,Walla Walla,US,2021-08-12 02:33:44,46.0646,-118.343,100.47,27,1,1.01
431,Araouane,ML,2021-08-12 02:31:10,18.9048,-3.5265,96.73,26,84,11.18
432,Aklavik,CA,2021-08-12 02:31:00,68.2191,-135.0107,67.03,49,89,4.0
433,Gumdag,TM,2021-08-12 02:33:45,39.2061,54.5906,87.48,16,4,13.51
434,Sinazongwe,ZM,2021-08-12 02:33:45,-17.2614,27.4618,62.35,61,0,3.76
435,Noumea,NC,2021-08-12 02:33:46,-22.2763,166.4572,76.98,51,5,18.21
436,Talnakh,RU,2021-08-12 02:33:46,69.4865,88.3972,43.16,91,100,7.63
437,Tebingtinggi,ID,2021-08-12 02:33:47,3.3285,99.1625,84.25,62,77,1.83
438,Pangody,RU,2021-08-12 02:33:47,65.85,74.4859,58.93,59,88,4.5
439,Labuhan,ID,2021-08-12 02:33:48,-6.8844,112.2051,87.57,49,8,5.06
440,Saint-Leu,RE,2021-08-12 02:33:48,-21.15,55.2833,68.86,75,3,7.11
441,Gushikawa,JP,2021-08-12 02:33:48,26.3544,127.8686,85.59,76,75,25.32
442,San Felipe,VE,2021-08-12 02:29:29,10.3399,-68.7425,74.28,87,40,2.44
443,Doume,CM,2021-08-12 02:33:49,4.2333,13.45,67.01,99,100,3.51
444,Svirstroy,RU,2021-08-12 02:33:49,60.7999,33.7248,60.53,75,99,3.96
445,Pangnirtung,CA,2021-08-12 02:33:50,66.1451,-65.7125,46.89,73,99,9.93
446,Tarrafal,CV,2021-08-12 02:33:50,15.2833,-23.7667,77.79,81,28,11.65
447,Joensuu,FI,2021-08-12 02:31:04,62.6012,29.7632,52.29,100,50,0.0
448,Shangzhi,CN,2021-08-12 02:29:04,45.2167,127.9667,60.69,97,100,5.77
449,Touros,BR,2021-08-12 02:33:51,-5.1989,-35.4608,74.3,89,5,9.48
450,Alice Springs,AU,2021-08-12 02:33:51,-23.7,133.8833,60.35,41,1,20.71
451,Gimbi,ET,2021-08-12 02:33:51,9.1667,35.8333,52.45,97,71,2.46
452,Broome,US,2021-08-12 02:30:11,42.2506,-75.833,81.18,86,1,4.0
453,Tilaran,CR,2021-08-12 02:33:52,10.4703,-84.9671,70.79,90,99,4.88
454,Nador,MA,2021-08-12 02:33:52,35.174,-2.9287,75.27,88,40,5.75
455,Oranjestad,AW,2021-08-12 02:29:12,12.524,-70.027,84.15,84,20,16.11
456,Husavik,IS,2021-08-12 02:30:34,66.0449,-17.3389,44.51,74,15,10.36
457,Nome,US,2021-08-12 02:28:46,64.5011,-165.4064,50.07,58,90,6.91
458,Marawi,PH,2021-08-12 02:29:06,7.9986,124.2928,76.64,61,20,3.44
459,Kansanshi,ZM,2021-08-12 02:33:53,-12.0951,26.4273,50.7,47,0,4.32
460,Mingguang,CN,2021-08-12 02:33:53,32.7802,117.9638,76.01,94,100,7.78
461,Sokode,TG,2021-08-12 02:33:53,8.9833,1.1333,70.16,95,100,2.1
462,Carlisle,US,2021-08-12 02:33:54,40.2015,-77.1889,74.62,82,100,3.02
463,Anahuac,MX,2021-08-12 02:33:54,27.2333,-100.15,90.82,40,100,23.04
464,Connersville,US,2021-08-12 02:33:54,39.6412,-85.1411,83.59,81,95,11.56
465,Keetmanshoop,NA,2021-08-12 02:33:55,-26.5833,18.1333,43.72,87,1,8.05
466,Kasongo-Lunda,CD,2021-08-12 02:33:55,-6.4667,16.8167,68.18,45,4,1.63
467,Saint-Pierre,RE,2021-08-12 02:30:06,-21.3393,55.4781,69.48,76,75,9.22
468,Marsa Matruh,EG,2021-08-12 02:33:55,31.3525,27.2453,80.8,78,0,6.91
469,Raga,SS,2021-08-12 02:30:20,8.4596,25.678,68.45,98,100,3.78
470,Ridgecrest,US,2021-08-12 02:33:37,35.6225,-117.6709,100.26,15,75,4.0
471,Senno,RU,2021-08-12 02:33:56,59.5336,33.9167,60.75,97,100,2.44
472,Zyryanka,RU,2021-08-12 02:33:56,65.75,150.85,78.85,32,97,3.47
473,Karaidel,RU,2021-08-12 02:33:57,55.8337,56.9069,56.79,66,11,6.15
474,Pahasu,IN,2021-08-12 02:33:57,28.1833,78.05,88.18,58,100,9.84
475,Myitkyina,MM,2021-08-12 02:33:57,25.3833,97.4,76.19,100,100,1.57
476,Pushkino,RU,2021-08-12 02:33:58,56.0172,37.8667,65.61,96,100,4.0
477,Barahona,DO,2021-08-12 02:33:58,18.2085,-71.1008,74.97,96,100,11.14
478,Chipata,ZM,2021-08-12 02:33:58,-13.6333,32.65,52.57,49,0,5.32
479,Boguchany,RU,2021-08-12 02:32:31,58.3814,97.4531,73.09,42,100,6.17
480,Alabaster,US,2021-08-12 02:32:19,33.2443,-86.8164,73.45,97,1,0.0
481,Sheboygan,US,2021-08-12 02:30:57,43.7333,-87.9334,82.38,82,20,4.0
482,Miraflores,MX,2021-08-12 02:33:59,19.2167,-98.8083,59.65,84,37,3.98
483,La Cruz,MX,2021-08-12 02:33:59,23.9167,-106.9,83.46,88,49,3.0
484,Muroran,JP,2021-08-12 02:33:59,42.3172,140.9881,66.45,79,100,12.93
485,Kishi,NG,2021-08-12 02:34:00,9.0833,3.85,70.2,98,98,6.78
486,Te Anau,NZ,2021-08-12 02:29:21,-45.4167,167.7167,53.6,86,100,11.65
487,Ngong,KE,2021-08-12 02:34:00,-1.3618,36.6566,55.78,84,100,3.67
488,Benguela,AO,2021-08-12 02:34:00,-12.5763,13.4055,70.84,84,90,3.6
489,Havelock,US,2021-08-12 02:34:01,34.8791,-76.9013,82.94,89,1,1.01
490,Srednekolymsk,RU,2021-08-12 02:28:55,67.45,153.6833,72.16,27,99,0.94
491,Salina,US,2021-08-12 02:32:22,38.8403,-97.6114,77.94,60,100,17.49
492,Grajewo,PL,2021-08-12 02:34:01,53.6473,22.4554,52.74,96,4,7.94
493,Sabla,NG,2021-08-12 02:34:02,12.7525,4.7077,74.62,90,100,7.43
494,Copiapo,CL,2021-08-12 02:29:31,-27.3667,-70.3333,49.69,75,0,1.52
495,Barillas,GT,2021-08-12 02:34:02,15.8036,-91.3158,59.07,96,86,2.93
496,Kluczbork,PL,2021-08-12 02:34:03,50.9728,18.2182,56.89,76,15,2.13
497,Plouzane,FR,2021-08-12 02:31:55,48.3833,-4.6167,57.52,97,0,6.91
498,Padang,ID,2021-08-12 02:29:25,-0.9492,100.3543,78.85,76,100,2.06
499,Grants Pass,US,2021-08-12 02:34:03,42.439,-123.3284,101.71,22,1,0.0
500,Bandarbeyla,SO,2021-08-12 02:33:00,9.4942,50.8122,75.7,78,45,20.47
501,Gigmoto,PH,2021-08-12 02:34:04,13.7796,124.39,86.81,69,100,4.76
502,Male,MV,2021-08-12 02:33:31,4.1748,73.5089,84.15,84,90,10.36
503,Sioux Lookout,CA,2021-08-12 02:34:04,50.1001,-91.917,61.18,77,75,9.22
504,Auki,SB,2021-08-12 02:34:05,-8.7676,160.7034,77.97,88,100,5.35
505,Calatayud,ES,2021-08-12 02:34:05,41.3535,-1.6432,75.78,53,79,3.65
506,Adrar,MR,2021-08-12 02:30:14,20.5022,-10.0711,92.79,18,90,12.8
507,Ajdabiya,LY,2021-08-12 02:34:06,30.7554,20.2263,79.59,74,0,8.46
508,Jumla,NP,2021-08-12 02:34:06,29.2747,82.1838,69.42,79,58,3.78
509,Banyo,CM,2021-08-12 02:34:07,6.75,11.8167,64.02,98,100,2.15
510,Veinticinco De Mayo,AR,2021-08-12 02:34:07,-35.4323,-60.1727,43.05,86,0,6.24
511,Athabasca,CA,2021-08-12 02:30:07,54.7169,-113.2854,63.01,45,95,12.8
512,Agadez,NE,2021-08-12 02:34:07,19.75,10.25,87.62,38,76,3.58
513,Tambun,ID,2021-08-12 02:34:08,-6.2641,107.0712,84.24,58,5,3.44
514,San Patricio,US,2021-08-12 02:34:08,28.017,-97.5169,86.09,71,0,12.08
515,Umirim,BR,2021-08-12 02:34:09,-3.6772,-39.3503,79.68,85,21,5.57
516,Sinfra,CI,2021-08-12 02:34:09,6.6167,-5.9167,74.57,98,99,4.23
517,Buala,SB,2021-08-12 02:34:10,-8.145,159.5921,78.04,88,100,6.4
518,Nabire,ID,2021-08-12 02:34:10,-3.3667,135.4833,84.0,72,94,1.59
519,Taltal,CL,2021-08-12 02:34:10,-25.4,-70.4833,55.6,83,43,1.45
520,Altay,CN,2021-08-12 02:29:23,47.8667,88.1167,73.51,34,96,2.04
521,Pringsewu,ID,2021-08-12 02:29:13,-5.3582,104.9744,83.53,63,36,2.82
522,Ankang,CN,2021-08-12 02:34:11,32.68,109.0172,79.27,79,96,1.83
523,Maralal,KE,2021-08-12 02:34:11,1.0968,36.698,56.68,90,55,4.0
524,Ciudad Bolivar,VE,2021-08-12 02:34:11,8.1222,-63.5497,78.82,82,91,8.3
525,Beyneu,KZ,2021-08-12 02:28:52,45.3167,55.2,82.18,33,3,3.62
526,Tessalit,ML,2021-08-12 02:29:54,20.1986,1.0114,93.49,12,0,13.49
527,Nokaneng,BW,2021-08-12 02:34:12,-19.6667,22.2667,56.23,36,0,7.45
528,Weihai,CN,2021-08-12 02:34:12,37.5017,122.1136,79.38,73,100,4.97
529,Tainan,TW,2021-08-12 02:33:59,22.9908,120.2133,89.38,94,75,0.0
530,Kahului,US,2021-08-12 02:32:10,20.8947,-156.47,87.06,69,20,20.71
531,San Andres,CO,2021-08-12 02:34:13,12.5847,-81.7006,82.42,83,75,10.36
532,Neijiang,CN,2021-08-12 02:32:44,29.5835,105.0622,81.77,77,100,6.02
533,Pando,UY,2021-08-12 02:34:13,-34.7167,-55.95,48.97,93,75,0.0
534,Zeya,RU,2021-08-12 02:29:44,53.75,127.2667,72.41,55,10,4.14
535,Haines Junction,CA,2021-08-12 02:31:09,60.7522,-137.5108,60.75,44,100,6.91
536,Lucapa,AO,2021-08-12 02:34:14,-8.4192,20.7447,63.01,30,0,2.89
537,Yulara,AU,2021-08-12 02:31:13,-25.2406,130.9889,62.44,36,0,19.57
538,Awbari,LY,2021-08-12 02:29:55,26.5921,12.7805,84.94,19,0,7.94
539,Vilcun,CL,2021-08-12 02:28:34,-38.65,-72.2333,47.14,80,0,3.85
540,Asau,RO,2021-08-12 02:34:14,46.4333,26.4,64.76,72,89,1.99
541,Gambiran,ID,2021-08-12 02:34:15,-6.7988,111.4951,87.4,45,13,7.25
542,Cap Malheureux,MU,2021-08-12 02:34:15,-19.9842,57.6142,72.09,84,10,5.01
543,Le Port,RE,2021-08-12 02:34:15,-20.9373,55.2919,69.8,72,0,7.81
544,Doha,QA,2021-08-12 02:34:15,25.2867,51.5333,89.58,82,0,1.14
545,Codrington,AU,2021-08-12 02:34:16,-38.2667,141.9667,57.36,70,54,14.52
546,Kieta,PG,2021-08-12 02:34:16,-6.2167,155.6333,75.51,96,100,3.51
547,Borba,BR,2021-08-12 02:34:16,-4.3878,-59.5939,81.5,46,66,1.28
548,Southbridge,US,2021-08-12 02:34:17,42.0751,-72.0334,80.92,93,45,6.17
549,Nizhnyaya Omka,RU,2021-08-12 02:34:17,55.4338,74.9426,55.09,81,100,14.18
550,Anuradhapura,LK,2021-08-12 02:34:18,8.3565,80.4173,83.03,71,100,13.24
551,Young,UY,2021-08-12 02:28:48,-32.6833,-57.6333,43.23,80,1,2.01
552,Puerto Suarez,BO,2021-08-12 02:34:18,-18.95,-57.8,59.58,71,2,6.4
553,La Primavera,CO,2021-08-12 02:34:18,5.4906,-70.4092,76.71,85,97,2.95
554,Sungaipenuh,ID,2021-08-12 02:34:19,-2.0833,101.3833,76.48,63,91,2.53
555,Lufilufi,WS,2021-08-12 02:34:19,-13.8745,-171.5986,89.38,71,28,13.51
556,Wajima,JP,2021-08-12 02:34:19,37.4,136.9,77.68,88,75,2.3
557,Bonthe,SL,2021-08-12 02:34:19,7.5264,-12.505,75.88,90,100,8.46
558,Iralaya,HN,2021-08-12 02:29:37,15.0,-83.2333,79.65,84,84,7.74
559,Helong,CN,2021-08-12 02:34:20,42.5397,128.9972,64.02,94,100,3.56
560,Xining,CN,2021-08-12 02:34:20,36.6167,101.7667,67.05,47,100,2.59
561,Christchurch,NZ,2021-08-12 02:29:30,-43.5333,172.6333,59.2,47,100,9.22
562,Skjervoy,NO,2021-08-12 02:31:24,70.0311,20.9714,52.23,98,100,4.99
563,Watertown,US,2021-08-12 02:34:21,42.3709,-71.1828,82.74,80,1,4.0
564,Iberia,US,2021-08-12 02:34:21,29.9502,-91.7507,75.27,94,1,6.91
565,Soderhamn,SE,2021-08-12 02:34:22,61.3037,17.0592,56.19,85,20,4.21
566,Port Moresby,PG,2021-08-12 02:29:11,-9.4431,147.1797,85.42,66,40,11.5
567,Soroca,MD,2021-08-12 02:34:22,48.1558,28.2975,60.4,77,4,5.59
568,Charters Towers,AU,2021-08-12 02:34:22,-20.1,146.2667,79.66,37,10,10.18
569,Ouango,CF,2021-08-12 02:34:23,4.3133,22.5552,68.11,98,100,1.1
570,Huarmey,PE,2021-08-12 02:34:23,-10.0681,-78.1522,62.71,85,70,8.41
571,Solvychegodsk,RU,2021-08-12 02:34:24,61.3305,46.9156,62.51,95,100,5.84
572,San Roque,ES,2021-08-12 02:34:24,36.2107,-5.3842,72.43,88,50,3.44
573,Jequitinhonha,BR,2021-08-12 02:34:24,-16.4339,-41.0033,67.51,70,27,3.27
